var places = {"0":{"name":"kerlingargjoll","label":"Kerlingarfj\u00f6ll","description":"Old Hag Mountains","date":"21 July","lat":64.615778,"long":-19.252411,"files":"kerlingarfjoll_1.jpg,kerlingarfjoll_2.jpg,kerlingarfjoll_3.jpg,kerlingarfjoll_4.jpg,kerlingarfjoll_5.jpg,kerlingarfjoll_6.jpg,kerlingarfjoll_7.webp,kerlingarfjoll_8.jpg,kerlingarfjoll_9.jpg,kerlingarfjoll_10.jpg,kerlingarfjoll_11.jpg,kerlingarfjoll_12.jpg,kerlingarfjoll_13.jpg,kerlingarfjoll_14.webp,kerlingarfjoll_15.jpg"},"1":{"name":"gullfoss","label":"Gullfoss","description":"Golden Waterfall","date":"19 July","lat":64.3271,"long":-20.1199,"files":"gullfoss_1.jpg,gullfoss_2.gif,gullfoss_3.jpg,gullfoss_4.webp,gullfoss_5.jpg,gullfoss_6.jpg,gullfoss_7.jpg"},"2":{"name":"langaholt","label":"Langaholt","description":"Long Hill","date":"24 July","lat":64.813839,"long":-23.1448,"files":"langaholt_1.jpg"},"3":{"name":"jokulsarlon","label":"J\u00f6kuls\u00e1rl\u00f3n","description":"Glacial River Lagoon","date":"27 July","lat":64.086446,"long":-16.224901,"files":"jokulsarlon_1.jpg,jokulsarlon_2.jpg,jokulsarlon_3.jpg,jokulsarlon_4.jpg,jokulsarlon_5.jpg,jokulsarlon_6.jpg"},"4":{"name":"raudamelslaug","label":"Rau\u00f0amelslaug","description":"Red Gravel Pool","date":"24 July","lat":64.8702,"long":-22.2834,"files":"raudamelslaug_1.jpg,raudamelslaug_2.jpg,raudamelslaug_3.jpg,raudamelslaug_4.jpg,raudamelslaug_5.jpg,raudamelslaug_6.jpg,raudamelslaug_7.jpg"},"5":{"name":"reykjavik","label":"Reykjav\u00edk","description":"Smoke Bay","date":"18 July","lat":64.1466,"long":-21.9426,"files":"reykjavik_1.jpg,reykjavik_2.jpg,reykjavik_3.jpg,reykjavik_4.jpg,reykjavik_5.jpg"},"6":{"name":"saudarkrokur","label":"Sau\u00f0\u00e1rkr\u00f3kur","description":"Sheep River Hook","date":"22 July","lat":65.7409,"long":-19.6405,"files":"saudarkrokur_1.jpg,saudarkrokur_2.jpg,saudarkrokur_3.jpg,saudarkrokur_4.jpg,saudarkrokur_5.jpg,saudarkrokur_6.jpg"},"7":{"name":"holar","label":"H\u00f3lar","description":"Hills","date":"23 July","lat":65.729,"long":-19.1012,"files":"holar_1.jpg,holar_2.jpg,holar_3.gif"},"8":{"name":"seljalandsfoss","label":"Seljalandsfoss","description":"Sell Land Waterfall ?","date":"27 July","lat":63.6127,"long":-19.9869,"files":"seljalandsfoss_1.jpg"},"9":{"name":"after_asolfsskali","label":"\u00dej\u00f3\u00f0vegur, before Seljalandsfoss","description":"Highway 1","date":"27 July","lat":63.576111,"long":-19.892778,"files":"after_asolfsskali_1.jpg"},"10":{"name":"arnarstapi","label":"Arnarstapi","description":"Eagle Cliff","date":"24 July","lat":64.76836,"long":-23.620732,"files":"arnarstapi_1.jpg,arnarstapi_2.jpg,arnarstapi_3.jpg"},"11":{"name":"asolfsskali","label":"\u00dej\u00f3\u00f0vegur, \u00c1s\u00f3lfssk\u00e1li town","description":"Asolf's Dwelling","date":"27 July","lat":63.561389,"long":-19.814167,"files":"asolfsskali_1.jpg"},"12":{"name":"axlar_bjorn","label":"Sn\u00e6fellsnes, near Axlar Bj\u00f6rn plaque","description":"Axlar Bj\u00f6rn - 16th century serial killer","date":"24 July","lat":64.815308,"long":-23.455705,"files":"axlar_bjorn_1.jpg,axlar_bjorn_2.gif,axlar_bjorn_3.jpg,axlar_bjorn_4.jpg"},"13":{"name":"barnafoss","label":"Barnafoss","description":"Children's Waterfall","date":"24 July","lat":64.70189,"long":-20.972194,"files":"barnafoss_1.jpg,barnafoss_2.jpg"},"14":{"name":"baula","label":"Baula Mountain","description":"Moooo Mountain","date":"23 July","lat":64.8504,"long":-21.4387,"files":"baula_1.jpg,baula_2.jpg"},"15":{"name":"f35_rocks","label":"Highway F35","description":null,"date":"21 July","lat":64.5127,"long":-19.9021,"files":"f35_rocks_1.jpg,f35_rocks_2.webp,f35_rocks_3.jpg"},"16":{"name":"f35_tent","label":"Highway F35","description":null,"date":"21 July","lat":64.719722,"long":-19.458889,"files":"f35_tent_1.jpg"},"17":{"name":"fjallsarlon","label":"Fjalls\u00e1rl\u00f3n","description":"Mountain River Lagoon","date":"27 July","lat":64.018309,"long":-16.386202,"files":"fjallsarlon_1.jpg"},"18":{"name":"fridheimar","label":"Fri\u00f0heimar Restaurant","description":"Peaceful Worlds","date":"19 July","lat":64.177617,"long":-20.443719,"files":"fridheimar_1.jpg"},"19":{"name":"gerduberg","label":"Ger\u00f0uberg Cliffs","description":"Ger\u00f0ur's Cliffs","date":"24 July","lat":64.859819,"long":-22.36015,"files":"gerduberg_1.jpg,gerduberg_2.jpg,gerduberg_3.jpg"},"20":{"name":"geysir","label":"Geysir","description":"One that erupts","date":"19 July","lat":64.310333,"long":-20.302481,"files":"geysir_1.jpg"},"21":{"name":"skaftafell","label":"Skei\u00f0ar\u00e1 Bridge Monument, looking at Skaftafell Peak","description":"The rest of the bridge was destroyed in a volcanic eruption in 1996","date":"27 July","lat":63.985192,"long":-16.964394,"files":"skaftafell_1.jpg,skaftafell_2.jpg,skaftafell_3.jpg,skaftafell_4.jpg"},"22":{"name":"hella","label":"Horse Rental in Hella","description":"Flat Stone","date":"26 July","lat":63.831079,"long":-20.395415,"files":"hella_1.jpg,hella_2.jpg"},"23":{"name":"hofsos","label":"Hofs\u00f3s Beach","description":"Sanctuary Delta","date":"23 July","lat":65.896679,"long":-19.408841,"files":"hofsos_1.jpg,hofsos_2.jpg,hofsos_3.jpg,hofsos_4.jpg,hofsos_5.jpg"},"24":{"name":"hraunfossar","label":"Hraunfossar","description":"Lava Field Waterfalls","date":"24 July","lat":64.701762,"long":-20.981292,"files":"hraunfossar_1.jpg"},"25":{"name":"skaftafell_far","label":"\u00dej\u00f3\u00f0vegur","description":"Looking at Skaft\u00e1fell (Skafta's mountain) - place of 1973 Laki eruption","date":"27 July","lat":63.947778,"long":-17.228889,"files":"skaftafell_far_1.jpg"},"26":{"name":"hveravellir","label":"Hveravellir","description":"Hot Springs Field","date":"21 July","lat":64.866481,"long":-19.548311,"files":"hveravellir_1.jpg,hveravellir_2.jpg"},"27":{"name":"hvitarvatn","label":"Hv\u00edt\u00e1rvatn, mouth of Hv\u00edt\u00e1 River","description":"White River Lake","date":"21 July","lat":64.582825,"long":-19.811913,"files":"hvitarvatn_1.jpg"},"28":{"name":"jokulsarlon_beach","label":"J\u00f6kuls\u00e1rl\u00f3n Beach","description":"Diamond Beach by the Glacial Lagoon","date":"27 July","lat":64.041149,"long":-16.187306,"files":"jokulsarlon_beach_1.jpg,jokulsarlon_beach_2.jpg,jokulsarlon_beach_3.webp,jokulsarlon_beach_4.webp,jokulsarlon_beach_5.jpg,jokulsarlon_beach_6.jpg,jokulsarlon_beach_7.jpg"},"29":{"name":"kerid","label":"Keri\u00f0 Crater","description":"\"Basin\" Crater","date":"19 July","lat":64.04152,"long":-20.888233,"files":"kerid_1.jpg"},"30":{"name":"kerlingarfjoll_camp","label":"Kerlingarfj\u00f6ll Mountain Resort","description":"Camp in Old Hag Mountains","date":"21 July","lat":64.688853,"long":-19.324557,"files":"kerlingarfjoll_camp_1.jpg,kerlingarfjoll_camp_2.jpg,kerlingarfjoll_camp_3.jpg,kerlingarfjoll_camp_4.webp,kerlingarfjoll_camp_5.jpg,kerlingarfjoll_camp_6.jpg"},"31":{"name":"krija","label":"Langaholt Beach","description":"Krija nesting in Sn\u00e6fellsness, Snow Mountain Peninsula","date":"24 July","lat":64.810694,"long":-23.154253,"files":"krija_1.jpg,krija_2.jpg,krija_3.webp,krija_4.jpg,krija_5.jpg,krija_6.webp,krija_7.jpg,krija_8.jpg,krija_9.jpg,krija_10.jpg,krija_11.jpg,krija_12.jpg,krija_13.jpg,krija_14.jpg"},"32":{"name":"londrangar","label":"Londrangar Cliffs & View of Sn\u00e6fellsj\u00f6kull","description":"The Troll rocks. Act as a church for the Elf people!","date":"24 July","lat":64.736392,"long":-23.7772,"files":"londrangar_1.jpg,londrangar_2.webp"},"33":{"name":"pre_baula","label":"Somewhere","description":"...along the path to Reykjavik","date":"23 July","lat":65.279899,"long":-21.045469,"files":"pre_baula_1.jpg"},"34":{"name":"reynisfjara","label":"Reynisfjara Beach","description":"Reynir's Beach","date":"27 July","lat":63.402704,"long":-19.042193,"files":"reynisfjara_1.jpg,reynisfjara_2.jpg,reynisfjara_3.jpg,reynisfjara_4.jpg,reynisfjara_5.jpg,reynisfjara_6.jpg,reynisfjara_7.jpg,reynisfjara_8.jpg,reynisfjara_9.jpg"},"35":{"name":"skalholt","label":"Sk\u00e1lholt Cathedral","description":"Hill Bowl","date":"19 July","lat":64.126752,"long":-20.526549,"files":"skalholt_1.jpg,skalholt_2.jpg"},"36":{"name":"skogafoss","label":"Sk\u00f3gafoss","description":"Forest Waterfall","date":"27 July","lat":63.532057,"long":-19.511351,"files":"skogafoss_1.jpg,skogafoss_2.webp"},"37":{"name":"snaefellsnesvegur_1","label":"Sn\u00e6fellsnes","description":"View of H\u00f3lsfjall - Hill Mountain","date":"24 July","lat":64.833644,"long":-22.857436,"files":"snaefellsnesvegur_1_1.jpg"},"38":{"name":"snaefellsnesvegur_2","label":"Sn\u00e6fellsnes","description":"Plains past \u00d6lkelda Spring","date":"24 July","lat":64.808056,"long":-23.054444,"files":"snaefellsnesvegur_2_1.jpg"},"39":{"name":"summer_house","label":"Summer House","description":null,"date":"25 July","lat":63.908889,"long":-20.871944,"files":"summer_house_1.jpg,summer_house_2.jpg"},"40":{"name":"thingvallavatn","label":"\u00deingvallavatn","description":"Congress Field Lake near \u00deingvellir","date":"19 July","lat":64.218882,"long":-21.232722,"files":"thingvallavatn_1.jpg"},"41":{"name":"thinkvellir","label":"\u00deingvellir","description":"Congress Field, where Al\u00feingi took place. Europe and America separate here.","date":"19 July","lat":64.255593,"long":-21.129584,"files":"thinkvellir_1.jpg"},"42":{"name":"tjodvegur","label":"\u00dej\u00f3\u00f0vegur","description":"Highway 1, near Hof","date":"27 July","lat":63.9575,"long":-16.424444,"files":"tjodvegur_1.jpg"},"43":{"name":"utnesvegur","label":"Sn\u00e6fellsnes","description":"Approaching Arnarstapi","date":"24 July","lat":64.810556,"long":-23.5975,"files":"utnesvegur_1.jpg"},"44":{"name":"vik","label":"Vik","description":null,"date":"27 July","lat":63.417428,"long":-19.001521,"files":"vik_1.jpg"}}